stop_id,stop_code,stop_name,stop_desc,stop_lat,stop_lon,zone_id,stop_url,location_type,parent_station,stop_timezone,wheelchair_boarding
SJ,SJ,Terminal San José,"Terminal San José, frente a Instituto Tecnológico Cosvic",9.928767,-84.076308,,,1,,,
SJ_1_01,SJ_1_01,Liceo Costa Rica,Costado este del Liceo de Costa Rica. González Víquez San José,9.925148,-84.074818,,,0,SJ,,
SJ_1_02,SJ_1_02,Distribuidora Illiana,Contiguo a la distribuidora Illiana. La Cruz San José,9.920428,-84.075281,,,0,SJ,,
SJ_1_03,SJ_1_03,Colegio Seminario,Costado norte del Colegio Seminario. Naciones Unidas San José,9.917724,-84.074619,,,0,SJ,,
SJ_1_04,SJ_1_04,Bac Credomatic Centro Comercial,Contiguo al Bac Credomatic. Centro comercial del sur,9.918256,-84.071169,,,0,SJ,,
SJ_1_05,SJ_1_05,Parque de la Paz,Parque de La Paz. San Francisco,9.913138,-84.069014,,,0,SJ,,
SJ_1_06,SJ_1_06,Salón El Jorón,Antiguo salón El Jorón. Santa Marta,9.910087,-84.068738,,,0,SJ,,
SJ_1_07,SJ_1_07,Antigua Radio Reloj,Antigua Radio Reloj. San Francisco,9.907949,-84.068587,,,0,SJ,,
SJ_1_08,SJ_1_08,Cementerio Desamparados,Cercanías del cementerio de Desamparados,9.90422,-84.069361,,,0,SJ,,
SJ_1_09,SJ_1_09,El Lagar,Ferretería El Lagar Desamparados,9.902609,-84.068986,,,0,SJ,,
SJ_1_10,SJ_1_10,Multicentro ,Multicentro Desamparados,9.899889,-84.067616,,,0,SJ,,
SJ_1_11,SJ_1_11,Centro La Villa,Centro Comercial La Villa. Desamparados,9.896134,-84.065291,,,0,SJ,,
SJ_1_12,SJ_1_12,Clínica Marcial Fallas,Clínica Marcial Fallas Díaz en Desamparados,9.893572,-84.064371,,,0,SJ,,
SJ_1_13,SJ_1_13,Ekono Desamparados,Frente a la tienda Ekono. Desamparados,9.891648,-84.064272,,,0,SJ,,
SJ_1_14,SJ_1_14,Servicentro Comara,Cercanías del Servicentro. Comara,9.888771,-84.064906,,,0,SJ,,
SJ_1_15,SJ_1_15,Maxi Palí San Miguel,Frente a Maxi Palí en el cruce de San Miguel de Desamparados,9.885638,-84.066396,,,0,SJ,,
SJ_1_16,SJ_1_16,Mall Expresso,Entrada principal de Mall Expreso en San Rafael Arrida de Desamparados,9.883886,-84.068566,,,0,SJ,,
SJ_1_17,SJ_1_17,Mangueras y Fitinería Bausan,Contiguo a Mangueras y  Fitinería Bausan. San Rafael Arriba,9.881718,-84.070306,,,0,SJ,,
SJ_1_18,SJ_1_18,Urbanización La Huerta,Contiguo a entrada Urb. La Huerta. San Rafael Arriba,9.881218,-84.071688,,,0,SJ,,
SJ_1_19,SJ_1_19,Fisioestética Olam,Fisioestética Olam. San Rafael Arriba,9.88035,-84.07341,,,0,SJ,,
SJ_1_20,SJ_1_20,Restaurante El Boyero,Contiguo a restaurante El Boyero. San Rafael Arriba,9.877972,-84.074929,,,0,SJ,,
SJ_1_21,SJ_1_21,Salón Comunal Adi,Salón Comunal Adi. San Rafael Arriba,9.874828,-84.077475,,,0,SJ,,
SJ_1_22,SJ_1_22,Restaurante Los Amigos,Contiguo a restaurante Los Amigos. Aserrí,9.871559,-84.080343,,,0,SJ,,
SJ_1_23,SJ_1_23,Fruity Fresh C.R,Contiguo a Fruity Fresh C.R,9.869892,-84.082241,,,0,SJ,,
SJ_1_24,SJ_1_24,Supermercado M,"Contiguo A Supermercado M, Aserrí",9.868627,-84.084913,,,0,SJ,,
SJ_1_25,SJ_1_25,Cementerio Aserrí,Cementerio de Aserrí,9.86749,-84.087211,,,0,SJ,,
SJ_1_26,SJ_1_26,Ferreteria Las Gravilias,Frente A ferretería Las Gravilias Aserrí,9.86604,-84.088776,,,0,SJ,,
SJ_1_27,SJ_1_27,Chicharronera Cacique Acseri,"Chicharronera Cacique Acseri, Aserrí",9.864369,-84.090588,,,0,SJ,,
SJ_1_28,SJ_1_28,Municipalidad de Aserrí,Costado Municipalidad Aserrí,9.862643,-84.093202,,,0,SJ,,
SJ_1_29,SJ_1_29,Panaderia La Única,"Contiguo a Panadería La Única, Aserrí",9.861588,-84.094445,,,0,SJ,,
SJ_1_30,SJ_1_30,Quebrada Suerre,"Puente Quebrada Suerre, Aserrí",9.860229,-84.094178,,,0,SJ,,
SJ_1_31,SJ_1_31,El Buen Café,"Soda Y Rest. El Buen Café, Aserrí",9.85783,-84.094618,,,0,SJ,,
SJ_1_32,SJ_1_32,Planta Potabilizadora,Planta Potabilizadora De Aserrí,9.854626,-84.09696,,,0,SJ,,
SJ_1_33,SJ_1_33,Taller Automotriz Castillo,"Frente A Taller Automotriz Castillo, Lourdes Aserrí",9.852279,-84.10008,,,0,SJ,,
SJ_1_34,SJ_1_34,Iglesia Católica de Lourdes,"Frente A Iglesia Católica De Lourdes, Aserrí",9.850966,-84.100672,,,0,SJ,,
SJ_1_35,SJ_1_35,Hotel Colinas Altavista,"Frente A Entrada Hotel Colinas Altavista, Tarbaca Aserrí",9.827812,-84.106756,,,0,SJ,,
SJ_1_36,SJ_1_36,Centro de Integración Afihnec,"Frente A Centro De Integración Afihnec, Tarbaca Aserrí",9.821146,-84.110126,,,0,SJ,,
SJ_1_37,SJ_1_37,Salón Comunal de Tarbaca,"Salón Comunal De Tarbaca, Aserrí",9.815327,-84.113216,,,0,SJ,,
SJ_0_01,SJ_0_01,Cerámicas Tarbaquita,Ceramicas Tabarquita. Tarbaca Aserrí,9.814918,-84.113013,,,,,,
SJ_0_02,SJ_0_02,Centro de Integración Afihnec,Centro De Integración Afihnec. Tarbaca Aserrí,9.82098,-84.110078,,,,,,
SJ_0_03,SJ_0_03,Entrada Hotel Colinas Altavista,Contiguo A Entrada Hotel Colinas Altavista. Tarbaca Aserrí,9.827839,-84.106403,,,,,,
SJ_0_04,SJ_0_04,Iglesia Católica de Lourdes,Iglesia Católica De Lourdes. Aserrí,9.851338,-84.100603,,,,,,
SJ_0_05,SJ_0_05,Taller Automotriz Castillo,Contiguo A Taller Automotriz Castillo. Lourdes Aserrí,9.852498,-84.099804,,,,,,
SJ_0_06,SJ_0_06,Planta Potabilizadora de Aserrí,Frente a Planta Potabilizadora de Aserrí,9.854579,-84.0969,,,,,,
SJ_0_07,SJ_0_07,Fábrica de Tamales La Vencedora,Fábrica De Tamales La Vencedora. Aserrí,9.85786,-84.094476,,,,,,
SJ_0_08,SJ_0_08,Puente Quebrada Suerre,Puente Quebrada Suerre. Aserrí,9.859576,-84.094175,,,,,,
SJ_0_09,SJ_0_09,Centro Médico Aserrí,Frente A Centro Médico Aserrí,9.861578,-84.093093,,,,,,
SJ_0_10,SJ_0_10,Parque Aserrí,Diagonal Parque Aserrí,9.863,-84.092151,,,,,,
SJ_0_11,SJ_0_11,Rest. Los Gallos De La Abuela,Rest. Los Gallos De La Abuela. Aserrí,9.864169,-84.090678,,,,,,
SJ_0_12,SJ_0_12,Ferretería Las Gravilias,Ferretería Las Gravilias Aserrí,9.865814,-84.088816,,,,,,
SJ_0_13,SJ_0_13,Cementerio de Aserrí,Frente a Cementerio De Aserrí,9.867406,-84.087049,,,,,,
SJ_0_14,SJ_0_14,Auto Repuestos Del Sur Aserrí,Contiguo a Auto Repuestos Del Sur. Aserrí,9.868344,-84.085112,,,,,,
SJ_0_15,SJ_0_15,Licorera Beto Fallas,"Contiguo a Licorera Beto Fallas, Aserrí",9.86978,-84.08212,,,,,,
SJ_0_16,SJ_0_16,Sport Fitness,Frente a Sport Fitness Aserrí,9.871293,-84.080344,,,,,,
SJ_0_17,SJ_0_17,Salón Comunal San Rafael Arriba,Frente al Salón Comunal Adi San Rafael Arriba,9.87484,-84.07729,,,,,,
SJ_0_18,SJ_0_18,El Boyero,"Frente a Rest. El Boyero, San Rafael Arriba",9.877783,-84.074946,,,,,,
SJ_0_19,SJ_0_19,Plaza del Sur,"Plaza Del Sur, San Rafael Arriba",9.879718,-84.073653,,,,,,
SJ_0_20,SJ_0_20,Antologías,"Contiguo a Bar & Rest. Antologias, San Rafael Arriba",9.881408,-84.070723,,,,,,
SJ_0_21,SJ_0_21,Mangueras y Fiteneria Bausan,"Frente a Mangueras Y Fitineria Bausan, San Rafael Arriba",9.881747,-84.069963,,,,,,
SJ_0_22,SJ_0_22,Maxi Palí San Miguel,"Maxi Palí San Miguel, Desamparados",9.885617,-84.065945,,,,,,
SJ_0_23,SJ_0_23,La Cueva,"La Cueva, Desamparados",9.889268,-84.064572,,,,,,
SJ_0_24,SJ_0_24,Megasuper Desamparados,"Megasuper, Desamparados",9.890999,-84.06421,,,,,,
SJ_0_25,SJ_0_25,Clínica Marcial Fallas Díaz,"Frente a Clínica Marcial Fallas Díaz, Desamparados",9.893594,-84.06424,,,,,,
SJ_0_26,SJ_0_26,Ciclo Ciclismo Actual,"Ciclo Ciclismo Actual, Desamparados",9.895896,-84.06434,,,,,,
SJ_0_27,SJ_0_27,Iglesia Católica de Desamparados,Costado norte Iglesia Católica de Desamparados,9.898044,-84.064575,,,,,,
SJ_0_28,SJ_0_28,Liceo Monseñor Rubén Odio,"Liceo Monseñor Rubén Odio Herrera, Desamparados",9.900487,-84.067733,,,,,,
SJ_0_29,SJ_0_29,Iglesia Cruzada de Fe,"Iglesia Evangelista Cruzada de Fe, Desamparados",9.904693,-84.069004,,,,,,
SJ_0_30,SJ_0_30,Plaza Mercados,"Distribuidora Plaza Mercados, San Francisco",9.908936,-84.0685,,,,,,
SJ_0_31,SJ_0_31,Casa De Las Baterias Parque de La Paz,"Casa De Las Baterias Parque De La Paz, San Francisco",9.911998,-84.068786,,,,,,
SJ_0_32,SJ_0_32,Burguer King Parque de La Paz,"Burger King Parque de La Paz, San Francisco",9.913706,-84.068826,,,,,,
SJ_0_33,SJ_0_33,Centro Comercial Terraza,Frente A Centro Comercial Terraza,9.917059,-84.070157,,,,,,
SJ_0_34,SJ_0_34,Multifamiliares Calderón Muñoz,"Multifamiliares Calderón Muñoz, San José",9.917059,-84.070157,,,,,,
SJ_0_35,SJ_0_35,Piscinas Plaza González Viquez,"Frente a Piscinas Plaza González Víquez, San José",9.924483,-84.073491,,,,,,
SJ_0_36,SJ_0_36,Centro Cultural Rubén Darío,"Contiguo al Centro Cultural Rubén Dario, González Víquez San José",9.924493,-84.074292,,,,,,
SG,SG,San Gabriel,Frente a la Escuela Gabriel Brenes Robles,1.0101,2.0202,,,,,,
SG_0_01,,,,1.0101,2.0202,,,,,,
SG_0_02,,,,1.0101,2.0202,,,,,,
SG_0_03,,,,1.0101,2.0202,,,,,,
SG_0_04,,,,1.0101,2.0202,,,,,,
...,,,,1.0101,2.0202,,,,,,
SG_1_01,,,,1.0101,2.0202,,,,,,
SG_1_02,,,,1.0101,2.0202,,,,,,
SG_1_03,,,,1.0101,2.0202,,,,,,
SG_1_04,,,,1.0101,2.0202,,,,,,
...,,,,1.0101,2.0202,,,,,,
LM,,Terminal Los Mangos,,1.0101,2.0202,,,,,,
LM_0_01,,,,1.0101,2.0202,,,,,,
LM_0_02,,,,1.0101,2.0202,,,,,,
LM_0_03,,,,1.0101,2.0202,,,,,,
LM_0_04,,,,1.0101,2.0202,,,,,,
...,,,,1.0101,2.0202,,,,,,
SI,,San Ignacio de Acosta centro,Costado norte de la Iglesia Católica de San Ignacio de Acosta,1.0101,2.0202,,,,,,
SI_0_01,,,,1.0101,2.0202,,,,,,
SI_0_02,,,,1.0101,2.0202,,,,,,
SI_0_03,,,,1.0101,2.0202,,,,,,
SI_0_04,,,,1.0101,2.0202,,,,,,
...,,,,1.0101,2.0202,,,,,,
SI_1_01,,,,1.0101,2.0202,,,,,,
SI_1_02,,,,1.0101,2.0202,,,,,,
SI_1_03,,,,1.0101,2.0202,,,,,,
SI_1_04,,,,1.0101,2.0202,,,,,,
...,,,,1.0101,2.0202,,,,,,
SL,,Terminal de Transportes San Gabriel,"Barrio María Auxiliadora, San Luis de Acosta",1.0101,2.0202,,,,,,
SL_0_01,,,,1.0101,2.0202,,,,,,
SL_0_02,,,,1.0101,2.0202,,,,,,
SL_0_03,,,,1.0101,2.0202,,,,,,
SL_0_04,,,,1.0101,2.0202,,,,,,
...,,,,1.0101,2.0202,,,,,,
SL_1_01,,,,1.0101,2.0202,,,,,,
SL_1_02,,,,1.0101,2.0202,,,,,,
SL_1_03,,,,1.0101,2.0202,,,,,,
SL_1_04,,,,1.0101,2.0202,,,,,,
...,,,,1.0101,2.0202,,,,,,
TU,,Terminal de Turrujal,,1.0101,2.0202,,,,,,
TU_0_01,,,,1.0101,2.0202,,,,,,
TU_0_02,,,,1.0101,2.0202,,,,,,
TU_0_03,,,,1.0101,2.0202,,,,,,
TU_0_04,,,,1.0101,2.0202,,,,,,
...,,,,1.0101,2.0202,,,,,,
TU_1_01,,,,1.0101,2.0202,,,,,,
TU_1_02,,,,1.0101,2.0202,,,,,,
TU_1_03,,,,1.0101,2.0202,,,,,,
TU_1_04,,,,1.0101,2.0202,,,,,,